{
  "moulvibazar": {
    "doctors": [
      {
        "name": "ড. সুজন ঘোষ",
        "department": "জুনিয়র কনসালট্যান্ট (মেডিসিন)",
        "contact": "01712-603263",
        "latitude": 24.5034,
        "longitude": 91.7301
      },
      {
        "name": "ড. রাজিব দে",
        "department": "জুনিয়র কনসালট্যান্ট (পেডিয়াট্রিকস)",
        "contact": "01720-636648",
        "latitude": 24.5035,
        "longitude": 91.7302
      },
      {
        "name": "ড. সাদেকুল আলম",
        "department": "জুনিয়র কনসালট্যান্ট (সার্জারি)",
        "contact": "01711-925541",
        "latitude": 24.5036,
        "longitude": 91.7303
      },
      {
        "name": "ড. আহমেদ ফরহান জামান",
        "department": "অ্যাসিস্ট্যান্ট মেডিকেল অফিসার",
        "contact": "01786-682350",
        "latitude": 24.5040,
        "longitude": 91.7305
      }
    ],
    "ambulances": [
      {
        "name": "সিলেট অ্যাম্বুলেন্স সার্ভিস",
        "phone_number": "01721-520585",
        "location": "নিউ মেডিকেল কলেজ রোড, সিলেট",
        "latitude": 24.8949,
        "longitude": 91.8681
      },
      {
        "name": "সিলেট অ্যাম্বুলেন্স সার্ভিস",
        "phone_number": "0821-721103",
        "location": "সিটি সেন্টার, সিলেট",
        "latitude": 24.8999,
        "longitude": 91.8720
      }
    ]
  },
  "sylhet_sadar": {
    "doctors": [
      {
        "name": "ড. কাজী মাইনুল ইসলাম",
        "department": "মেডিসিন",
        "contact": "09610-006940",
        "latitude": 24.8949,
        "longitude": 91.8681
      },
      {
        "name": "লেফটেন্যান্ট কর্নেল ড. মোহাম্মদ সাইফুর বর্জিব",
        "department": "মেডিসিন (ডায়াবেটিস, রিউমেটিজম, অ্যাস্থমা, হরমোন ডিসঅর্ডার)",
        "contact": "09610-006940",
        "latitude": 24.8950,
        "longitude": 91.8682
      },
      {
        "name": "ড. ইকবাল আহমেদ চৌধুরী",
        "department": "মেডিসিন",
        "contact": "01712-196280",
        "latitude": 24.8951,
        "longitude": 91.8683
      }
    ],
    "ambulances": [
      {
        "name": "সিলেট অ্যাম্বুলেন্স সার্ভিস",
        "phone_number": "01721-520585",
        "location": "নিউ মেডিকেল কলেজ রোড, সিলেট",
        "latitude": 24.8949,
        "longitude": 91.8681
      },
      {
        "name": "সিলেট অ্যাম্বুলেন্স সার্ভিস",
        "phone_number": "0821-721103",
        "location": "সিটি সেন্টার, সিলেট",
        "latitude": 24.8999,
        "longitude": 91.8720
      }
    ]
  },
  "sunamganj": {
    "doctors": [
      {
        "name": "ড. গৌতম রায়",
        "department": "মেডিসিন",
        "contact": "01718-888547",
        "latitude": 25.0600,
        "longitude": 91.4085
      },
      {
        "name": "ড. মলেকা বাহার লিলি",
        "department": "গাইনোকোলজি",
        "contact": "01552-577858",
        "latitude": 25.0601,
        "longitude": 91.4086
      },
      {
        "name": "ড. মোহাম্মদ সামিলুল হক",
        "department": "মেডিসিন",
        "contact": "01712-009191",
        "latitude": 25.0602,
        "longitude": 91.4087
      }
    ],
    "ambulances": [
      {
        "name": "সুনামগঞ্জ অ্যাম্বুলেন্স সার্ভিস",
        "phone_number": "01713-374419",
        "location": "সুনামগঞ্জ সিটি",
        "latitude": 25.0603,
        "longitude": 91.4088
      },
      {
        "name": "শান্তি গঞ্জ অ্যাম্বুলেন্স",
        "phone_number": "01712-123456",
        "location": "শান্তি গঞ্জ, সুনামগঞ্জ",
        "latitude": 25.0604,
        "longitude": 91.4089
      }
    ]
  },
  "habiganj": {
    "doctors": [
      {
        "name": "ড. প্রণব কান্তি দাশ",
        "department": "মেডিসিন",
        "contact": "01712-717762",
        "latitude": 24.7689,
        "longitude": 91.4501
      },
      {
        "name": "ড. বিনেন্দু ভৌমিক",
        "department": "হাসপাতাল প্রশাসন",
        "contact": "01313-847974",
        "latitude": 24.7690,
        "longitude": 91.4502
      },
      {
        "name": "ড. এ. এইচ. এম. এনামুল হক",
        "department": "ইএনটি",
        "contact": "01717-687211",
        "latitude": 24.7691,
        "longitude": 91.4503
      }
    ],
    "ambulances": [
      {
        "name": "হবিগঞ্জ জেলা ফায়ার সার্ভিস (অ্যাম্বুলেন্স)",
        "phone_number": "0831-61111",
        "location": "হবিগঞ্জ",
        "latitude": 24.7689,
        "longitude": 91.4501
      },
      {
        "name": "মাধবপুর উপজেলা অ্যাম্বুলেন্স",
        "phone_number": "08327-56100",
        "location": "মাধবপুর, হবিগঞ্জ",
        "latitude": 24.7690,
        "longitude": 91.4502
      }
    ]
  }
}
